[
  {
    "ACCESSIBLE": "N", 
    "CITY": "Brooklyn", 
    "OEM_LABEL": "IS 2", 
    "BLDG_ADD": "655 Parkside Avenue", 
    "CROSS2": "Rogers Avenue", 
    "BLDG_ID": "K002", 
    "longitude": -73.9514750884979, 
    "CROSS1": "Nostrand Avenue", 
    "latitude": 40.656414222947625, 
    "ACC_FEAT": "", 
    "Y": "178429.5162", 
    "X": "997713.8235", 
    "BOROCODE": "3", 
    "ZIP_CODE": "11226"
  }, 
  {
    "ACCESSIBLE": "N", 
    "CITY": "Brooklyn", 
    "OEM_LABEL": "PS 7", 
    "BLDG_ADD": "858 Jamaica Avenue", 
    "CROSS2": "Crescent Street", 
    "BLDG_ID": "K007", 
    "longitude": -73.87315656586283, 
    "CROSS1": "Hemlock Street", 
    "latitude": 40.6891749476368, 
    "ACC_FEAT": "", 
    "Y": "190386.9218", 
    "X": "1019426.951", 
    "BOROCODE": "3", 
    "ZIP_CODE": "11208"
  }, 
  {
    "ACCESSIBLE": "Y", 
    "CITY": "Brooklyn", 
    "OEM_LABEL": "PS 24", 
    "BLDG_ADD": "427 38 Street", 
    "CROSS2": "5 Avenue", 
    "BLDG_ID": "K024", 
    "longitude": -74.00453928496393, 
    "CROSS1": "4 Avenue", 
    "latitude": 40.652805532350605, 
    "ACC_FEAT": "The main/accessible entrance to this location for sheltering purposes is 427 38th Street, Brooklyn (Between Fourth Avenue and Fifth Avenue)", 
    "Y": "177111.0736", 
    "X": "982990.4523", 
    "BOROCODE": "3", 
    "ZIP_CODE": "11232"
  }, 
  {
    "ACCESSIBLE": "N", 
    "CITY": "Brooklyn", 
    "OEM_LABEL": "IS 55", 
    "BLDG_ADD": "2021 Bergen Street", 
    "CROSS2": "Rockaway Avenue", 
    "BLDG_ID": "K055", 
    "longitude": -73.91326003902323, 
    "CROSS1": "Thomas Boyland Street", 
    "latitude": 40.67449093644383, 
    "ACC_FEAT": "", 
    "Y": "185023.5559", 
    "X": "1008310.527", 
    "BOROCODE": "3", 
    "ZIP_CODE": "11233"
  }, 
  {
    "ACCESSIBLE": "N", 
    "CITY": "Brooklyn", 
    "OEM_LABEL": "PS 145", 
    "BLDG_ADD": "100 Noll Street", 
    "CROSS2": "Evergreen Avenue", 
    "BLDG_ID": "K145", 
    "longitude": -73.9322848427611, 
    "CROSS1": "Central Avenue", 
    "latitude": 40.701455732472, 
    "ACC_FEAT": "", 
    "Y": "194842.9627", 
    "X": "1003025.703", 
    "BOROCODE": "3", 
    "ZIP_CODE": "11206"
  }, 
  {
    "ACCESSIBLE": "N", 
    "CITY": "Brooklyn", 
    "OEM_LABEL": "PS 226", 
    "BLDG_ADD": "6006 23 Avenue", 
    "CROSS2": "61 Street", 
    "BLDG_ID": "K226", 
    "longitude": -73.9772024521522, 
    "CROSS1": "60 Street", 
    "latitude": 40.61524666123293, 
    "ACC_FEAT": "", 
    "Y": "163428.1574", 
    "X": "990579.359", 
    "BOROCODE": "3", 
    "ZIP_CODE": "11204"
  }, 
  {
    "ACCESSIBLE": "N", 
    "CITY": "Brooklyn", 
    "OEM_LABEL": "IS 227", 
    "BLDG_ADD": "6500 16 Avenue", 
    "CROSS2": "65 Street", 
    "BLDG_ID": "K227", 
    "longitude": -73.99578336340564, 
    "CROSS1": "66 Street", 
    "latitude": 40.62178403160917, 
    "ACC_FEAT": "", 
    "Y": "165809.0979", 
    "X": "985420.5642", 
    "BOROCODE": "3", 
    "ZIP_CODE": "11204"
  }, 
  {
    "ACCESSIBLE": "N", 
    "CITY": "Brooklyn", 
    "OEM_LABEL": "PS 249", 
    "BLDG_ADD": "18 Marlborough Road", 
    "CROSS2": "Church Avenue", 
    "BLDG_ID": "K249", 
    "longitude": -73.96648921676285, 
    "CROSS1": "Caton Avenue", 
    "latitude": 40.649708582897176, 
    "ACC_FEAT": "", 
    "Y": "175984.5155", 
    "X": "993548.9069", 
    "BOROCODE": "3", 
    "ZIP_CODE": "11226"
  }, 
  {
    "ACCESSIBLE": "N", 
    "CITY": "Brooklyn", 
    "OEM_LABEL": "Adams Street Educational Campus", 
    "BLDG_ADD": "283 Adams Street", 
    "CROSS2": "Willoughby Street", 
    "BLDG_ID": "K313", 
    "longitude": -73.98834759441539, 
    "CROSS1": "Johnson Street", 
    "latitude": 40.694632261339905, 
    "ACC_FEAT": "", 
    "Y": "192349.9277", 
    "X": "987481.2488", 
    "BOROCODE": "3", 
    "ZIP_CODE": "11201"
  }, 
  {
    "ACCESSIBLE": "N", 
    "CITY": "Brooklyn", 
    "OEM_LABEL": "IS 324", 
    "BLDG_ADD": "800 Gates Avenue", 
    "CROSS2": "Malcom X Boulevard", 
    "BLDG_ID": "K324", 
    "longitude": -73.93237354925483, 
    "CROSS1": "Stuyvesant Avenue", 
    "latitude": 40.6879381478371, 
    "ACC_FEAT": "", 
    "Y": "189918.0904", 
    "X": "1003004.909", 
    "BOROCODE": "3", 
    "ZIP_CODE": "11221"
  }, 
  {
    "ACCESSIBLE": "N", 
    "CITY": "Brooklyn", 
    "OEM_LABEL": "PS 327", 
    "BLDG_ADD": "111 Bristol Street", 
    "CROSS2": "Sutter Avenue", 
    "BLDG_ID": "K327", 
    "longitude": -73.91172137458639, 
    "CROSS1": "Pitkin Avenue", 
    "latitude": 40.66795481402347, 
    "ACC_FEAT": "", 
    "Y": "182642.6882", 
    "X": "1008739.732", 
    "BOROCODE": "3", 
    "ZIP_CODE": "11212"
  }, 
  {
    "ACCESSIBLE": "Y", 
    "CITY": "Brooklyn", 
    "OEM_LABEL": "PS - IS 30", 
    "BLDG_ADD": "7002 4 Avenue", 
    "CROSS2": "72 Street", 
    "BLDG_ID": "K331", 
    "longitude": -74.02453258815895, 
    "CROSS1": "Ovington Avenue", 
    "latitude": 40.633451401586136, 
    "ACC_FEAT": "The main/accessible entrance to this location for sheltering purposes is 7002 4th Avenue, Brooklyn (Close to the intersection with Ovington Avenue)", 
    "Y": "170060.757", 
    "X": "977440.7935", 
    "BOROCODE": "3", 
    "ZIP_CODE": "11209"
  }, 
  {
    "ACCESSIBLE": "N", 
    "CITY": "Brooklyn", 
    "OEM_LABEL": "IS 383", 
    "BLDG_ADD": "1300 Greene Avenue", 
    "CROSS2": "Wilson Avenue", 
    "BLDG_ID": "K383", 
    "longitude": -73.91928775564858, 
    "CROSS1": "Knickerbocker Avenue", 
    "latitude": 40.69769363245039, 
    "ACC_FEAT": "", 
    "Y": "193475.3716", 
    "X": "1006630.729", 
    "BOROCODE": "3", 
    "ZIP_CODE": "11237"
  }, 
  {
    "ACCESSIBLE": "N", 
    "CITY": "Brooklyn", 
    "OEM_LABEL": "IS 391", 
    "BLDG_ADD": "790 East New York Avenue", 
    "CROSS2": "Schenectady Avenue", 
    "BLDG_ID": "K391", 
    "longitude": -73.9364409673805, 
    "CROSS1": "Troy Avenue", 
    "latitude": 40.66206795345731, 
    "ACC_FEAT": "", 
    "Y": "180491.9963", 
    "X": "1001883.727", 
    "BOROCODE": "3", 
    "ZIP_CODE": "11203"
  }, 
  {
    "ACCESSIBLE": "Y", 
    "CITY": "Brooklyn", 
    "OEM_LABEL": "Brooklyn Tech HS", 
    "BLDG_ADD": "29 Ft Greene Place", 
    "CROSS2": "Lafayette Avenue", 
    "BLDG_ID": "K430", 
    "longitude": -73.97644081217922, 
    "CROSS1": "DeKalb Avenue", 
    "latitude": 40.68895581711948, 
    "ACC_FEAT": "The main/accessible entrance to this location for sheltering purposes is on S. Elliott Place, Brooklyn (Between Dekalb Avenue and Lafayette Avenue)", 
    "Y": "190282.4961", 
    "X": "990783.5932", 
    "BOROCODE": "3", 
    "ZIP_CODE": "11217"
  }, 
  {
    "ACCESSIBLE": "N", 
    "CITY": "Brooklyn", 
    "OEM_LABEL": "John Jay Educational Campus", 
    "BLDG_ADD": "237 7th Avenue", 
    "CROSS2": "5 Street", 
    "BLDG_ID": "K460", 
    "longitude": -73.97869546477135, 
    "CROSS1": "4 Street", 
    "latitude": 40.66930777421424, 
    "ACC_FEAT": "", 
    "Y": "183123.9885", 
    "X": "990160.0587", 
    "BOROCODE": "3", 
    "ZIP_CODE": "11215"
  }, 
  {
    "ACCESSIBLE": "N", 
    "CITY": "Brooklyn", 
    "OEM_LABEL": "Clara Barton HS", 
    "BLDG_ADD": "901 Classon Avenue", 
    "CROSS2": "Carroll Street", 
    "BLDG_ID": "K600", 
    "longitude": -73.96139358088836, 
    "CROSS1": "President Street", 
    "latitude": 40.6688589934404, 
    "ACC_FEAT": "", 
    "Y": "182962.1263", 
    "X": "994959.8198", 
    "BOROCODE": "3", 
    "ZIP_CODE": "11225"
  }, 
  {
    "ACCESSIBLE": "Y", 
    "CITY": "New York", 
    "OEM_LABEL": "IS 90", 
    "BLDG_ADD": "21 Jumel Place", 
    "CROSS2": "W 167 Street", 
    "BLDG_ID": "M090", 
    "longitude": -73.93570737369656, 
    "CROSS1": "Edgecombe Avenue", 
    "latitude": 40.839358025707995, 
    "ACC_FEAT": "The main/accessible entrance to this location for sheltering purposes is  21 Jumel Place, Manhattan (Between Edgecombe Avenue and W. 167th Street)", 
    "Y": "245084.6444", 
    "X": "1002039.846", 
    "BOROCODE": "1", 
    "ZIP_CODE": "10023"
  }, 
  {
    "ACCESSIBLE": "N", 
    "CITY": "New York", 
    "OEM_LABEL": "PS 92", 
    "BLDG_ADD": "222 W 134 Street", 
    "CROSS2": "7 Avenue", 
    "BLDG_ID": "M092", 
    "longitude": -73.94581431360051, 
    "CROSS1": "Frederick Douglass Blvd", 
    "latitude": 40.81471159756806, 
    "ACC_FEAT": "", 
    "Y": "236103.1597", 
    "X": "999248.7987", 
    "BOROCODE": "1", 
    "ZIP_CODE": "10030"
  }, 
  {
    "ACCESSIBLE": "N", 
    "CITY": "New York", 
    "OEM_LABEL": "PS - IS 210", 
    "BLDG_ADD": "501-503 W 152 Street", 
    "CROSS2": "Amsterdam Avenue", 
    "BLDG_ID": "M093", 
    "longitude": -73.9446461561769, 
    "CROSS1": "Broadway", 
    "latitude": 40.82999707810637, 
    "ACC_FEAT": "", 
    "Y": "241672.416", 
    "X": "999568.6298", 
    "BOROCODE": "1", 
    "ZIP_CODE": "10031"
  }, 
  {
    "ACCESSIBLE": "Y", 
    "CITY": "New York", 
    "OEM_LABEL": "IS 118", 
    "BLDG_ADD": "154 W 93 Street", 
    "CROSS2": "Columbus Avenue", 
    "BLDG_ID": "M118", 
    "longitude": -73.9709716523631, 
    "CROSS1": "Amsterdam Avenue", 
    "latitude": 40.79146159984722, 
    "ACC_FEAT": "The main/accessible entrance to this location for sheltering purposes is 154 West 93rd Street, Manhattan (Between Columbus Avenue and Amsterdam Avenue)", 
    "Y": "227629.0612", 
    "X": "992287.9616", 
    "BOROCODE": "1", 
    "ZIP_CODE": "10025"
  }, 
  {
    "ACCESSIBLE": "Y", 
    "CITY": "New York", 
    "OEM_LABEL": "PS 125", 
    "BLDG_ADD": "425 W 123 Street", 
    "CROSS2": "Morningside Avenue", 
    "BLDG_ID": "M125", 
    "longitude": -73.95609685360824, 
    "CROSS1": "Amsterdam Avenue", 
    "latitude": 40.81078944896416, 
    "ACC_FEAT": "The main/accessible entrance to this location for sheltering purposes is 425 West 123rd Street, Manhattan (Between Morningside Avenue and Amsterdam Avenue)", 
    "Y": "234672.5875", 
    "X": "996403.27", 
    "BOROCODE": "1", 
    "ZIP_CODE": "10027"
  }, 
  {
    "ACCESSIBLE": "N", 
    "CITY": "New York", 
    "OEM_LABEL": "IS 131", 
    "BLDG_ADD": "100 Hester Street", 
    "CROSS2": "Eldridge Street", 
    "BLDG_ID": "M131", 
    "longitude": -73.9936020105624, 
    "CROSS1": "Forsyth Street", 
    "latitude": 40.71623837093086, 
    "ACC_FEAT": "", 
    "Y": "200221.5314", 
    "X": "986023.6077", 
    "BOROCODE": "1", 
    "ZIP_CODE": "10002"
  }, 
  {
    "ACCESSIBLE": "N", 
    "CITY": "New York", 
    "OEM_LABEL": "George Washington Educational Campus", 
    "BLDG_ADD": "549 Audobon Avenue", 
    "CROSS2": "W 190 Street", 
    "BLDG_ID": "M465", 
    "longitude": -73.92619138174254, 
    "CROSS1": "Ft George Avenue", 
    "latitude": 40.85559869190474, 
    "ACC_FEAT": "", 
    "Y": "251003.8071", 
    "X": "1004667.946", 
    "BOROCODE": "1", 
    "ZIP_CODE": "10040"
  }, 
  {
    "ACCESSIBLE": "Y", 
    "CITY": "New York", 
    "OEM_LABEL": "Midtown East Campus (PS 59)", 
    "BLDG_ADD": "233 E 56 Street", 
    "CROSS2": "2 Avenue", 
    "BLDG_ID": "M488", 
    "longitude": -73.96635633026096, 
    "CROSS1": "3 Avenue", 
    "latitude": 40.75929963010011, 
    "ACC_FEAT": "The main/accessible entrance to this location for sheltering purposes is 233 East 56th Street, Manhattan (Between 2nd Avenue and 3rd Avenue)", 
    "Y": "215911.8336", 
    "X": "993570.4466", 
    "BOROCODE": "1", 
    "ZIP_CODE": "10022"
  }, 
  {
    "ACCESSIBLE": "N", 
    "CITY": "New York", 
    "OEM_LABEL": "Martin Luther King Jr. HS", 
    "BLDG_ADD": "122 Amsterdam Avenue", 
    "CROSS2": "W 65 Street", 
    "BLDG_ID": "M490", 
    "longitude": -73.98563038673784, 
    "CROSS1": "W 66 Street", 
    "latitude": 40.774899959639, 
    "ACC_FEAT": "", 
    "Y": "221594.087", 
    "X": "988229.9418", 
    "BOROCODE": "1", 
    "ZIP_CODE": "10023"
  }, 
  {
    "ACCESSIBLE": "N", 
    "CITY": "New York", 
    "OEM_LABEL": "Clinton School", 
    "BLDG_ADD": "10 E 15 Street", 
    "CROSS2": "Union Square West", 
    "BLDG_ID": "M868", 
    "longitude": -73.99235077972975, 
    "CROSS1": "5 Avenue", 
    "latitude": 40.73611037158359, 
    "ACC_FEAT": "", 
    "Y": "207461.5451", 
    "X": "986369.8333", 
    "BOROCODE": "1", 
    "ZIP_CODE": "10003"
  }, 
  {
    "ACCESSIBLE": "N", 
    "CITY": "Flushing", 
    "OEM_LABEL": "PS 20", 
    "BLDG_ADD": "142-30 Barclay Avenue", 
    "CROSS2": "Union Street", 
    "BLDG_ID": "Q020", 
    "longitude": -73.82402972970017, 
    "CROSS1": "Bowne Street", 
    "latitude": 40.75845345017611, 
    "ACC_FEAT": "", 
    "Y": "215650.719", 
    "X": "1033000.368", 
    "BOROCODE": "4", 
    "ZIP_CODE": "11355"
  }, 
  {
    "ACCESSIBLE": "N", 
    "CITY": "Flushing", 
    "OEM_LABEL": "IS 25", 
    "BLDG_ADD": "34-65 192 Street", 
    "CROSS2": "35 Avenue", 
    "BLDG_ID": "Q025", 
    "longitude": -73.78970200561916, 
    "CROSS1": "34 Avenue", 
    "latitude": 40.764987261743, 
    "ACC_FEAT": "", 
    "Y": "218052.162", 
    "X": "1042504.704", 
    "BOROCODE": "4", 
    "ZIP_CODE": "11355"
  }, 
  {
    "ACCESSIBLE": "Y", 
    "CITY": "Maspeth", 
    "OEM_LABEL": "PS 58", 
    "BLDG_ADD": "72-24 Grand Avenue", 
    "CROSS2": "73 Place", 
    "BLDG_ID": "Q058", 
    "longitude": -73.89006272918279, 
    "CROSS1": "72 Place", 
    "latitude": 40.72869672748651, 
    "ACC_FEAT": "The main/accessible entrance to this location for sheltering purposes is 72-24 Grand Avenue, Queens (Adjacent to the intersection of 72nd Place)", 
    "Y": "204779.5505", 
    "X": "1014720.368", 
    "BOROCODE": "4", 
    "ZIP_CODE": "11378"
  }, 
  {
    "ACCESSIBLE": "N", 
    "CITY": "Bayside", 
    "OEM_LABEL": "IS 74", 
    "BLDG_ADD": "61-15 Oceania Street", 
    "CROSS2": "210 Street", 
    "BLDG_ID": "Q074", 
    "longitude": -73.76682865335889, 
    "CROSS1": "Horace Harding Expy", 
    "latitude": 40.745078241914264, 
    "ACC_FEAT": "", 
    "Y": "210814.7238", 
    "X": "1048860.151", 
    "BOROCODE": "4", 
    "ZIP_CODE": "11362"
  }, 
  {
    "ACCESSIBLE": "N", 
    "CITY": "South Ozone Park", 
    "OEM_LABEL": "PS 100", 
    "BLDG_ADD": "111-11 118 Street", 
    "CROSS2": "111 Avenue", 
    "BLDG_ID": "Q100", 
    "longitude": -73.82133980456621, 
    "CROSS1": "Linden Blvd", 
    "latitude": 40.67976045673272, 
    "ACC_FEAT": "", 
    "Y": "186982.0152", 
    "X": "1033804.052", 
    "BOROCODE": "4", 
    "ZIP_CODE": "11420"
  }, 
  {
    "ACCESSIBLE": "N", 
    "CITY": "Jackson Heights", 
    "OEM_LABEL": "IS 145", 
    "BLDG_ADD": "33-34 80 Street", 
    "CROSS2": "34 Avenue", 
    "BLDG_ID": "Q145", 
    "longitude": -73.88742394242313, 
    "CROSS1": "Northern Blvd", 
    "latitude": 40.75426241182211, 
    "ACC_FEAT": "", 
    "Y": "214094.8629", 
    "X": "1015439.767", 
    "BOROCODE": "4", 
    "ZIP_CODE": "11372"
  }, 
  {
    "ACCESSIBLE": "Y", 
    "CITY": "Ridgewood", 
    "OEM_LABEL": "PS 239", 
    "BLDG_ADD": "17-15 Weirfield Street", 
    "CROSS2": "Seneca Avenue", 
    "BLDG_ID": "Q239", 
    "longitude": -73.90415473873686, 
    "CROSS1": "Cypress Avenue", 
    "latitude": 40.6991824281411, 
    "ACC_FEAT": "The main/accessible entrance to this location for sheltering purposes is 17-15 Weirfield Street, Queens (Between Cypress Avenue and Seneca Avenue)", 
    "Y": "194022.0126", 
    "X": "1010826.374", 
    "BOROCODE": "4", 
    "ZIP_CODE": "11385"
  }, 
  {
    "ACCESSIBLE": "N", 
    "CITY": "Corona", 
    "OEM_LABEL": "PS 207", 
    "BLDG_ADD": "40-20 100 Street", 
    "CROSS2": "40 Road", 
    "BLDG_ID": "Q260", 
    "longitude": -73.8658231590077, 
    "CROSS1": "Spruce Avenue", 
    "latitude": 40.74931524380983, 
    "ACC_FEAT": "", 
    "Y": "212300.8809", 
    "X": "1021427.13", 
    "BOROCODE": "4", 
    "ZIP_CODE": "11368"
  }, 
  {
    "ACCESSIBLE": "Y", 
    "CITY": "Jamaica", 
    "OEM_LABEL": "PS - IS 268", 
    "BLDG_ADD": "92-07 175 Street", 
    "CROSS2": "93 Avenue", 
    "BLDG_ID": "Q268", 
    "longitude": -73.78520179610506, 
    "CROSS1": "Jamaica Avenue", 
    "latitude": 40.70766542619453, 
    "ACC_FEAT": "The main/accessible entrance to this location for sheltering purposes is 92-07 175th Street, Queens (Close to the intersection with Jamaica Avenue)", 
    "Y": "197171.0978", 
    "X": "1043802.516", 
    "BOROCODE": "4", 
    "ZIP_CODE": "11433"
  }, 
  {
    "ACCESSIBLE": "N", 
    "CITY": "Forest Hills", 
    "OEM_LABEL": "Forest Hills HS", 
    "BLDG_ADD": "67-01 110 Street", 
    "CROSS2": "67 Road", 
    "BLDG_ID": "Q440", 
    "longitude": -73.84476053063426, 
    "CROSS1": "66 Road", 
    "latitude": 40.729781794064955, 
    "ACC_FEAT": "", 
    "Y": "205193.8784", 
    "X": "1027275.677", 
    "BOROCODE": "4", 
    "ZIP_CODE": "11375"
  }, 
  {
    "ACCESSIBLE": "N", 
    "CITY": "Ridgewood", 
    "OEM_LABEL": "Grover Cleveland HS", 
    "BLDG_ADD": "21-27 Himrod Street", 
    "CROSS2": "Tonsor Street", 
    "BLDG_ID": "Q485", 
    "longitude": -73.90963486044839, 
    "CROSS1": "Grandview Avenue", 
    "latitude": 40.71126606471983, 
    "ACC_FEAT": "", 
    "Y": "198422.8263", 
    "X": "1009302.282", 
    "BOROCODE": "4", 
    "ZIP_CODE": "11385"
  }, 
  {
    "ACCESSIBLE": "N", 
    "CITY": "Jamaica", 
    "OEM_LABEL": "Hillcrest HS", 
    "BLDG_ADD": "160-05 Highland Avenue", 
    "CROSS2": "162 Street", 
    "BLDG_ID": "Q505", 
    "longitude": -73.80266512057773, 
    "CROSS1": "Parsons Blvd", 
    "latitude": 40.709656418916325, 
    "ACC_FEAT": "", 
    "Y": "197885.0849", 
    "X": "1038959.207", 
    "BOROCODE": "4", 
    "ZIP_CODE": "11432"
  }, 
  {
    "ACCESSIBLE": "Y", 
    "CITY": "Flushing", 
    "OEM_LABEL": "Townsend Harris HS", 
    "BLDG_ADD": "149-11 Melbourne Avenue", 
    "CROSS2": "150 Street", 
    "BLDG_ID": "Q515", 
    "longitude": -73.82135704910147, 
    "CROSS1": "149 Street", 
    "latitude": 40.73497558787669, 
    "ACC_FEAT": "The main/accessible entrance to this location for sheltering purposes is on 149th Street (Close to the intersection with Melbourne Avenue)", 
    "Y": "207098.4979", 
    "X": "1033758.244", 
    "BOROCODE": "4", 
    "ZIP_CODE": "11367"
  }, 
  {
    "ACCESSIBLE": "Y", 
    "CITY": "Bellerose", 
    "OEM_LABEL": "HS of Teaching, Lib Arts and Sci", 
    "BLDG_ADD": "74-20 Commonwealth Blvd", 
    "CROSS2": "76 Avenue", 
    "BLDG_ID": "Q566", 
    "longitude": -73.72886555974395, 
    "CROSS1": "Grand Central Pkwy", 
    "latitude": 40.74445728670452, 
    "ACC_FEAT": "The main/accessible entrance to this location for sheltering purposes is 74-20 Commonwealth Boulevard, Queens (Close to the intersection with Cross Island Parkway and Grand Central Parkway)", 
    "Y": "210618.7714", 
    "X": "1059380.128", 
    "BOROCODE": "4", 
    "ZIP_CODE": "11426"
  }, 
  {
    "ACCESSIBLE": "N", 
    "CITY": "Long Island City", 
    "OEM_LABEL": "Frank Sinatra HS", 
    "BLDG_ADD": "35-12 35Th Avenue", 
    "CROSS2": "36 Street", 
    "BLDG_ID": "Q570", 
    "longitude": -73.92516451530132, 
    "CROSS1": "35 Street", 
    "latitude": 40.75612679352497, 
    "ACC_FEAT": "", 
    "Y": "214762.9321", 
    "X": "1004982.973", 
    "BOROCODE": "4", 
    "ZIP_CODE": "11101"
  }, 
  {
    "ACCESSIBLE": "N", 
    "CITY": "Long Island City", 
    "OEM_LABEL": "Aviation HS", 
    "BLDG_ADD": "45-30 36 Street", 
    "CROSS2": "47 Avenue", 
    "BLDG_ID": "Q610", 
    "longitude": -73.92945375899055, 
    "CROSS1": "Queens Blvd", 
    "latitude": 40.743494992612156, 
    "ACC_FEAT": "", 
    "Y": "210159.7756", 
    "X": "1003798.356", 
    "BOROCODE": "4", 
    "ZIP_CODE": "11101"
  }, 
  {
    "ACCESSIBLE": "Y", 
    "CITY": "Staten Island", 
    "OEM_LABEL": "Jerome Parker Campus", 
    "BLDG_ADD": "100 Essex Drive", 
    "CROSS2": "Wellington Court", 
    "BLDG_ID": "R043", 
    "longitude": -74.1589793190868, 
    "CROSS1": "Richmond Hill Road", 
    "latitude": 40.58138899056346, 
    "ACC_FEAT": "The main/accessible entrance to this location for sheltering purposes is 100 Essex Drive, Staten Island (Close to the intersection with Westport Street)", 
    "Y": "151132.1919", 
    "X": "940089.6798", 
    "BOROCODE": "5", 
    "ZIP_CODE": "10314"
  }, 
  {
    "ACCESSIBLE": "N", 
    "CITY": "Staten Island", 
    "OEM_LABEL": "IS 51", 
    "BLDG_ADD": "20 Houston Street", 
    "CROSS2": "Houston Lane", 
    "BLDG_ID": "R051", 
    "longitude": -74.14489171684734, 
    "CROSS1": "Willowbrook Road", 
    "latitude": 40.623017156097056, 
    "ACC_FEAT": "", 
    "Y": "166291.5946", 
    "X": "944027.9315", 
    "BOROCODE": "5", 
    "ZIP_CODE": "10302"
  }, 
  {
    "ACCESSIBLE": "Y", 
    "CITY": "Staten Island", 
    "OEM_LABEL": "PS 56", 
    "BLDG_ADD": "250 Kramer Avenue", 
    "CROSS2": "Kramer Avenue", 
    "BLDG_ID": "R056", 
    "longitude": -74.21396005248609, 
    "CROSS1": "Winant Avenue", 
    "latitude": 40.541989803388205, 
    "ACC_FEAT": "The main/accessible entrance to this location for sheltering purposes is 250 Kramer Avenue, Staten Island (Close to the intersection with Winant Avenue)", 
    "Y": "136810.6621", 
    "X": "924782.428", 
    "BOROCODE": "5", 
    "ZIP_CODE": "10309"
  }, 
  {
    "ACCESSIBLE": "N", 
    "CITY": "Staten Island", 
    "OEM_LABEL": "Ralph McKee HS", 
    "BLDG_ADD": "290 St Marks Place", 
    "CROSS2": "Fort Place", 
    "BLDG_ID": "R600", 
    "longitude": -74.0790191708376, 
    "CROSS1": "Wall Street", 
    "latitude": 40.6428288477172, 
    "ACC_FEAT": "", 
    "Y": "173486.1518", 
    "X": "962320.7125", 
    "BOROCODE": "5", 
    "ZIP_CODE": "10301"
  }, 
  {
    "ACCESSIBLE": "N", 
    "CITY": "Staten Island", 
    "OEM_LABEL": "Petrides Complex", 
    "BLDG_ADD": "715 Ocean Terrace", 
    "CROSS2": "Witteman Place", 
    "BLDG_ID": "R880", 
    "longitude": -74.10434506989976, 
    "CROSS1": "Milford Drive", 
    "latitude": 40.608996010072815, 
    "ACC_FEAT": "", 
    "Y": "161167.3145", 
    "X": "955277.6252", 
    "BOROCODE": "5", 
    "ZIP_CODE": "10301"
  }, 
  {
    "ACCESSIBLE": "N", 
    "CITY": "Bronx", 
    "OEM_LABEL": "IS 201", 
    "BLDG_ADD": "730 Bryant Avenue", 
    "CROSS2": "Spofford Avenue", 
    "BLDG_ID": "X074", 
    "longitude": -73.8853081310701, 
    "CROSS1": "Lafayette Avenue", 
    "latitude": 40.815868959378136, 
    "ACC_FEAT": "", 
    "Y": "236540.9722", 
    "X": "1015996.575", 
    "BOROCODE": "2", 
    "ZIP_CODE": "10474"
  }, 
  {
    "ACCESSIBLE": "N", 
    "CITY": "Bronx", 
    "OEM_LABEL": "PS 102", 
    "BLDG_ADD": "1827 Archer Street", 
    "CROSS2": "Thieriot Avenue", 
    "BLDG_ID": "X102", 
    "longitude": -73.86622748012768, 
    "CROSS1": "Taylor Avenue", 
    "latitude": 40.838205858181865, 
    "ACC_FEAT": "", 
    "Y": "244686.6022", 
    "X": "1021265.645", 
    "BOROCODE": "2", 
    "ZIP_CODE": "10460"
  }, 
  {
    "ACCESSIBLE": "N", 
    "CITY": "Bronx", 
    "OEM_LABEL": "PS 132", 
    "BLDG_ADD": "1245 Washington Avenue", 
    "CROSS2": "E 169 Street", 
    "BLDG_ID": "X132", 
    "longitude": -73.90699064855765, 
    "CROSS1": "E 168 Street", 
    "latitude": 40.83189358551657, 
    "ACC_FEAT": "", 
    "Y": "242372.2079", 
    "X": "1009988.683", 
    "BOROCODE": "2", 
    "ZIP_CODE": "10456"
  }, 
  {
    "ACCESSIBLE": "Y", 
    "CITY": "Bronx", 
    "OEM_LABEL": "IS 391", 
    "BLDG_ADD": "2225 Webster Avenue", 
    "CROSS2": "E 182 Street", 
    "BLDG_ID": "X137", 
    "longitude": -73.8972292804822, 
    "CROSS1": "E 180 Street", 
    "latitude": 40.85443375262295, 
    "ACC_FEAT": "The main/accessible entrance to this location for sheltering purposes is 2190 Folin Street, Bronx (Between East 182nd Street and Tiebout Avenue)", 
    "Y": "250587.4506", 
    "X": "1012680.332", 
    "BOROCODE": "2", 
    "ZIP_CODE": "10457"
  }, 
  {
    "ACCESSIBLE": "N", 
    "CITY": "Bronx", 
    "OEM_LABEL": "MS - HS 141", 
    "BLDG_ADD": "660 W 237 Street", 
    "CROSS2": "Independence Avenue", 
    "BLDG_ID": "X141", 
    "longitude": -73.91417582880743, 
    "CROSS1": "Hudson Manor Terrace", 
    "latitude": 40.888058583101056, 
    "ACC_FEAT": "", 
    "Y": "262833.2477", 
    "X": "1007980.264", 
    "BOROCODE": "2", 
    "ZIP_CODE": "10463"
  }, 
  {
    "ACCESSIBLE": "N", 
    "CITY": "Bronx", 
    "OEM_LABEL": "IS 158", 
    "BLDG_ADD": "800 Home Street", 
    "CROSS2": "Union Avenue", 
    "BLDG_ID": "X158", 
    "longitude": -73.90087575059167, 
    "CROSS1": "Tinton Avenue", 
    "latitude": 40.827334800083555, 
    "ACC_FEAT": "", 
    "Y": "240713.1318", 
    "X": "1011682.751", 
    "BOROCODE": "2", 
    "ZIP_CODE": "10456"
  }, 
  {
    "ACCESSIBLE": "N", 
    "CITY": "Bronx", 
    "OEM_LABEL": "PS 211", 
    "BLDG_ADD": "1919 Prospect Avenue", 
    "CROSS2": "East Tremont Avenue", 
    "BLDG_ID": "X193", 
    "longitude": -73.89046990067223, 
    "CROSS1": "E 176 Street", 
    "latitude": 40.8437598414768, 
    "ACC_FEAT": "", 
    "Y": "246700.8088", 
    "X": "1014555.098", 
    "BOROCODE": "2", 
    "ZIP_CODE": "10457"
  }, 
  {
    "ACCESSIBLE": "Y", 
    "CITY": "Bronx", 
    "OEM_LABEL": "PS - IS 218", 
    "BLDG_ADD": "1220 Gerard Avenue", 
    "CROSS2": "E 168 Street", 
    "BLDG_ID": "X235", 
    "longitude": -73.9196645528439, 
    "CROSS1": "E 167 Street", 
    "latitude": 40.83549265445649, 
    "ACC_FEAT": "The main/accessible entrance to this location for sheltering purposes is 1220 Gerard Avenue, Bronx (Close to the intersection with East 167th Street)", 
    "Y": "243680.011", 
    "X": "1006480.204", 
    "BOROCODE": "2", 
    "ZIP_CODE": "10452"
  }, 
  {
    "ACCESSIBLE": "N", 
    "CITY": "Bronx", 
    "OEM_LABEL": "PS 306", 
    "BLDG_ADD": "40 West Tremont Avenue", 
    "CROSS2": "Jerome Avenue", 
    "BLDG_ID": "X306", 
    "longitude": -73.91076904000936, 
    "CROSS1": "W 177 Street", 
    "latitude": 40.85138734688986, 
    "ACC_FEAT": "", 
    "Y": "249473.4243", 
    "X": "1008935.846", 
    "BOROCODE": "2", 
    "ZIP_CODE": "10453"
  }, 
  {
    "ACCESSIBLE": "Y", 
    "CITY": "Bronx", 
    "OEM_LABEL": "IS - HS 362", 
    "BLDG_ADD": "921 E 228 Street", 
    "CROSS2": "Paulding Avenue", 
    "BLDG_ID": "X362", 
    "longitude": -73.85266909034794, 
    "CROSS1": "Bronxwood Avenue", 
    "latitude": 40.888220095175605, 
    "ACC_FEAT": "The main/accessible entrance to this location for sheltering purposes is 921 East 228th Street, Bronx (Between Bronxwood Avenue and Paulding Avenue)", 
    "Y": "262914.7259", 
    "X": "1024986.68", 
    "BOROCODE": "2", 
    "ZIP_CODE": "10466"
  }, 
  {
    "ACCESSIBLE": "N", 
    "CITY": "Bronx", 
    "OEM_LABEL": "Walton HS", 
    "BLDG_ADD": "2780 Reservoir Avenue", 
    "CROSS2": "Strong Street", 
    "BLDG_ID": "X430", 
    "longitude": -73.89704424332007, 
    "CROSS1": "W 195 Street", 
    "latitude": 40.86993370690602, 
    "ACC_FEAT": "", 
    "Y": "256234.7412", 
    "X": "1012724.883", 
    "BOROCODE": "2", 
    "ZIP_CODE": "10468"
  }, 
  {
    "ACCESSIBLE": "Y", 
    "CITY": "Bronx", 
    "OEM_LABEL": "HS of Law, Gov't and Justice", 
    "BLDG_ADD": "244 E 163 Street", 
    "CROSS2": "Grant Avenue", 
    "BLDG_ID": "X460", 
    "longitude": -73.91902100678608, 
    "CROSS1": "Sherman Avenue", 
    "latitude": 40.82747699290162, 
    "ACC_FEAT": "The main/accessible entrance to this location for sheltering purposes is 244 East 163rd Street (Between Grant Avenue and Sherman Avenue)", 
    "Y": "240759.7754", 
    "X": "1006660.984", 
    "BOROCODE": "2", 
    "ZIP_CODE": "10451"
  }
]